{
  "code": 200,
  "message": "success",
  "data": [
    {
      "id": "1",
      "name": "杭州楼外楼",
      "category": "中餐",
      "address": "杭州市上城区孤山路30号",
      "latitude": 30.2448,
      "longitude": 120.1432,
      "rating": 4.8,
      "imageUrl": "https://picsum.photos/200/200?random=1",
      "phone": "0571-87990233",
      "businessHours": "10:00-22:00"
    },
    {
      "id": "2",
      "name": "杭州知味观",
      "category": "中餐",
      "address": "杭州市上城区高银街73-77号",
      "latitude": 30.2378,
      "longitude": 120.1547,
      "rating": 4.6,
      "imageUrl": "https://picsum.photos/200/200?random=2",
      "phone": "0571-87827766",
      "businessHours": "08:00-21:30"
    },
    {
      "id": "3",
      "name": "杭州新白鹿餐厅",
      "category": "中餐",
      "address": "杭州市上城区延安路258号",
      "latitude": 30.2642,
      "longitude": 120.1598,
      "rating": 4.5,
      "imageUrl": "https://picsum.photos/200/200?random=3",
      "phone": "0571-87036668",
      "businessHours": "11:00-14:00, 17:00-21:00"
    },
    {
      "id": "4",
      "name": "杭州绿茶餐厅",
      "category": "中餐",
      "address": "杭州市西湖区文三路90号",
      "latitude": 30.2845,
      "longitude": 120.1297,
      "rating": 4.4,
      "imageUrl": "https://picsum.photos/200/200?random=4",
      "phone": "0571-88927777",
      "businessHours": "11:00-22:00"
    },
    {
      "id": "5",
      "name": "杭州弄堂里",
      "category": "中餐",
      "address": "杭州市上城区中山南路489号",
      "latitude": 30.2487,
      "longitude": 120.1521,
      "rating": 4.3,
      "imageUrl": "https://picsum.photos/200/200?random=5",
      "phone": "0571-87066566",
      "businessHours": "10:30-22:00"
    },
    {
      "id": "6",
      "name": "杭州味庄",
      "category": "中餐",
      "address": "杭州市西湖区杨公堤10-12号",
      "latitude": 30.2478,
      "longitude": 120.1256,
      "rating": 4.7,
      "imageUrl": "https://picsum.photos/200/200?random=6",
      "phone": "0571-87975858",
      "businessHours": "11:00-14:00, 17:00-21:00"
    },
    {
      "id": "7",
      "name": "杭州老头儿油爆虾",
      "category": "中餐",
      "address": "杭州市上城区庆春路88号",
      "latitude": 30.2578,
      "longitude": 120.1498,
      "rating": 4.5,
      "imageUrl": "https://picsum.photos/200/200?random=7",
      "phone": "0571-87215911",
      "businessHours": "10:30-22:00"
    },
    {
      "id": "8",
      "name": "杭州张生记",
      "category": "中餐",
      "address": "杭州市上城区解放路138号",
      "latitude": 30.2556,
      "longitude": 120.1534,
      "rating": 4.4,
      "imageUrl": "https://picsum.photos/200/200?random=8",
      "phone": "0571-87065858",
      "businessHours": "11:00-21:30"
    },
    {
      "id": "9",
      "name": "杭州新开元大酒店",
      "category": "中餐",
      "address": "杭州市上城区解放路142号",
      "latitude": 30.2552,
      "longitude": 120.1536,
      "rating": 4.3,
      "imageUrl": "https://picsum.photos/200/200?random=9",
      "phone": "0571-87028888",
      "businessHours": "10:00-22:00"
    },
    {
      "id": "10",
      "name": "杭州天外天菜馆",
      "category": "中餐",
      "address": "杭州市西湖区灵隐路38号",
      "latitude": 30.2431,
      "longitude": 120.1028,
      "rating": 4.2,
      "imageUrl": "https://picsum.photos/200/200?random=10",
      "phone": "0571-87969690",
      "businessHours": "09:30-21:00"
    },
    {
      "id": "11",
      "name": "杭州必胜客",
      "category": "西餐",
      "address": "杭州市上城区延安路260号",
      "latitude": 30.2561,
      "longitude": 120.1557,
      "rating": 4.1,
      "imageUrl": "https://picsum.photos/200/200?random=11",
      "phone": "0571-87025555",
      "businessHours": "09:00-22:00"
    },
    {
      "id": "12",
      "name": "杭州肯德基",
      "category": "快餐",
      "address": "杭州市上城区庆春路296号",
      "latitude": 30.2589,
      "longitude": 120.1512,
      "rating": 4.0,
      "imageUrl": "https://picsum.photos/200/200?random=12",
      "phone": "0571-87028888",
      "businessHours": "24小时"
    },
    {
      "id": "13",
      "name": "杭州麦当劳",
      "category": "快餐",
      "address": "杭州市上城区延安路298号",
      "latitude": 30.2573,
      "longitude": 120.1554,
      "rating": 4.1,
      "imageUrl": "https://picsum.photos/200/200?random=13",
      "phone": "0571-87029999",
      "businessHours": "24小时"
    },
    {
      "id": "14",
      "name": "杭州星巴克咖啡",
      "category": "饮品",
      "address": "杭州市上城区延安路280号",
      "latitude": 30.2568,
      "longitude": 120.1552,
      "rating": 4.5,
      "imageUrl": "https://picsum.photos/200/200?random=14",
      "phone": "0571-87026666",
      "businessHours": "07:00-23:00"
    },
    {
      "id": "15",
      "name": "杭州海底捞火锅",
      "category": "火锅",
      "address": "杭州市拱墅区武林广场1号",
      "latitude": 30.2785,
      "longitude": 120.1532,
      "rating": 4.8,
      "imageUrl": "https://picsum.photos/200/200?random=15",
      "phone": "0571-87027777",
      "businessHours": "10:00-03:00"
    },
    {
      "id": "16",
      "name": "杭州东来顺",
      "category": "火锅",
      "address": "杭州市上城区河坊街128号",
      "latitude": 30.2467,
      "longitude": 120.1542,
      "rating": 4.3,
      "imageUrl": "https://picsum.photos/200/200?random=16",
      "phone": "0571-87024444",
      "businessHours": "10:30-22:30"
    },
    {
      "id": "17",
      "name": "杭州日本料理店",
      "category": "日韩料理",
      "address": "杭州市上城区平海路58号",
      "latitude": 30.2587,
      "longitude": 120.1542,
      "rating": 4.6,
      "imageUrl": "https://picsum.photos/200/200?random=17",
      "phone": "0571-87023333",
      "businessHours": "11:00-14:00, 17:00-22:00"
    },
    {
      "id": "18",
      "name": "杭州韩国烧烤店",
      "category": "日韩料理",
      "address": "杭州市西湖区文三路128号",
      "latitude": 30.2832,
      "longitude": 120.1315,
      "rating": 4.4,
      "imageUrl": "https://picsum.photos/200/200?random=18",
      "phone": "0571-87022222",
      "businessHours": "11:00-23:00"
    },
    {
      "id": "19",
      "name": "杭州意大利餐厅",
      "category": "西餐",
      "address": "杭州市上城区南山路158号",
      "latitude": 30.2387,
      "longitude": 120.1452,
      "rating": 4.7,
      "imageUrl": "https://picsum.photos/200/200?random=19",
      "phone": "0571-87021111",
      "businessHours": "11:00-22:00"
    },
    {
      "id": "20",
      "name": "杭州法式餐厅",
      "category": "西餐",
      "address": "杭州市西湖区杨公堤28号",
      "latitude": 30.2498,
      "longitude": 120.1291,
      "rating": 4.9,
      "imageUrl": "https://picsum.photos/200/200?random=20",
      "phone": "0571-87020000",
      "businessHours": "11:30-14:00, 17:30-22:00"
    }
  ]
}